Software Outputs/Passes.txt

Target: GroundStatSat

Observer: BroncoSpace
Start Time (UTC)            Stop Time (UTC)               Duration (s)         
02 Jul 2024 03:49:07.830    02 Jul 2024 03:53:11.059      243.22845654    
02 Jul 2024 15:58:32.603    02 Jul 2024 16:03:05.878      273.27517580    
03 Jul 2024 03:34:33.426    03 Jul 2024 03:36:17.276      103.85015085    
03 Jul 2024 15:42:35.773    03 Jul 2024 15:47:38.434      302.66164698    
04 Jul 2024 04:51:54.219    04 Jul 2024 04:55:25.057      210.83780418    
04 Jul 2024 15:26:56.875    04 Jul 2024 15:31:53.931      297.05528249    
05 Jul 2024 04:35:40.804    05 Jul 2024 04:40:19.295      278.49079514    
05 Jul 2024 15:11:36.531    05 Jul 2024 15:15:51.864      255.33264871    
06 Jul 2024 04:19:46.018    06 Jul 2024 04:24:48.256      302.23762117    
06 Jul 2024 14:56:47.794    06 Jul 2024 14:59:19.339      151.54491422    
07 Jul 2024 04:04:05.087    07 Jul 2024 04:08:56.819      291.73126911    
07 Jul 2024 16:14:31.654    07 Jul 2024 16:17:44.748      193.09373614    
08 Jul 2024 03:48:41.126    08 Jul 2024 03:52:41.931      240.80584188    
08 Jul 2024 15:57:59.890    08 Jul 2024 16:02:34.515      274.62438927    
09 Jul 2024 03:34:01.526    09 Jul 2024 03:35:36.218      94.691823819    
09 Jul 2024 15:41:54.881    09 Jul 2024 15:46:58.410      303.52862139    
10 Jul 2024 04:51:08.694    10 Jul 2024 04:54:39.980      211.28551316    
10 Jul 2024 15:26:08.088    10 Jul 2024 15:31:05.043      296.95486153    
11 Jul 2024 04:34:47.113    11 Jul 2024 04:39:25.326      278.21310572    
11 Jul 2024 15:10:40.332    11 Jul 2024 15:14:53.707      253.37533088    
12 Jul 2024 04:18:44.329    12 Jul 2024 04:23:45.172      300.84319068    
12 Jul 2024 14:55:46.148    12 Jul 2024 14:58:10.029      143.88037277    
13 Jul 2024 04:02:55.743    13 Jul 2024 04:07:44.216      288.47320899    
13 Jul 2024 16:13:12.924    13 Jul 2024 16:16:33.533      200.60936721    
14 Jul 2024 03:47:25.041    14 Jul 2024 03:51:18.830      233.78881157    
14 Jul 2024 15:56:34.835    14 Jul 2024 16:01:12.915      278.07961124    
15 Jul 2024 03:32:49.925    15 Jul 2024 03:33:51.320      61.394433200    
15 Jul 2024 15:40:22.799    15 Jul 2024 15:45:27.183      304.38398161    
16 Jul 2024 04:49:29.306    16 Jul 2024 04:53:06.238      216.93184802    
16 Jul 2024 15:24:29.144    16 Jul 2024 15:29:24.081      294.93754918    
17 Jul 2024 04:33:00.982    17 Jul 2024 04:37:41.017      280.03465212    
17 Jul 2024 15:08:55.326    17 Jul 2024 15:13:02.269      246.94295623    
18 Jul 2024 04:16:51.050    18 Jul 2024 04:21:50.621      299.57063704    
18 Jul 2024 14:54:00.058    18 Jul 2024 14:56:03.196      123.13777506    
19 Jul 2024 04:00:55.676    19 Jul 2024 04:05:38.980      283.30414159    
19 Jul 2024 16:11:00.213    19 Jul 2024 16:14:33.192      212.97920337    
20 Jul 2024 03:45:19.756    20 Jul 2024 03:49:01.248      221.49241723    
20 Jul 2024 15:54:17.469    20 Jul 2024 15:59:00.563      283.09428807    
21 Jul 2024 05:04:24.714    21 Jul 2024 05:05:18.757      54.043160146    
21 Jul 2024 15:37:59.436    21 Jul 2024 15:43:04.195      304.75895726    
22 Jul 2024 04:46:56.068    22 Jul 2024 04:50:43.139      227.07053146    
22 Jul 2024 15:21:59.919    22 Jul 2024 15:26:50.357      290.43747709    
23 Jul 2024 04:30:22.164    23 Jul 2024 04:35:05.768      283.60371500    
23 Jul 2024 15:06:21.556    23 Jul 2024 15:10:16.532      234.97645066    
24 Jul 2024 04:14:05.863    24 Jul 2024 04:19:03.915      298.05199681    
24 Jul 2024 14:51:34.880    24 Jul 2024 14:52:52.355      77.475696243    
25 Jul 2024 03:58:04.610    25 Jul 2024 04:02:40.223      275.61292746    
25 Jul 2024 16:07:53.684    25 Jul 2024 16:11:42.246      228.56229628    
26 Jul 2024 03:42:25.520    26 Jul 2024 03:45:47.612      202.09269344    
26 Jul 2024 15:51:07.452    26 Jul 2024 15:55:56.331      288.87957026    
27 Jul 2024 05:00:44.591    27 Jul 2024 05:02:35.872      111.28060052    
27 Jul 2024 15:34:44.334    27 Jul 2024 15:39:48.285      303.95102939    
28 Jul 2024 04:43:28.757    28 Jul 2024 04:47:29.253      240.49534674    
28 Jul 2024 15:18:39.990    28 Jul 2024 15:23:22.530      282.53948351    
29 Jul 2024 04:26:50.108    29 Jul 2024 04:31:38.331      288.22298058    
29 Jul 2024 15:02:59.079    29 Jul 2024 15:06:34.535      215.45626855    
30 Jul 2024 04:10:28.160    30 Jul 2024 04:15:23.709      295.54892310    
30 Jul 2024 16:21:29.512    30 Jul 2024 16:23:12.392      102.88002184    
31 Jul 2024 03:54:22.089    31 Jul 2024 03:58:46.289      264.19983495    
31 Jul 2024 16:03:53.071    31 Jul 2024 16:07:58.721      245.64995411    
01 Aug 2024 03:38:43.283    01 Aug 2024 03:41:34.704      171.42027130    
01 Aug 2024 15:47:04.091    01 Aug 2024 15:51:58.533      294.44172325    


Number of events : 62


Observer: Columbia
Start Time (UTC)            Stop Time (UTC)               Duration (s)         
02 Jul 2024 00:38:58.859    02 Jul 2024 00:40:08.753      69.894533255    
02 Jul 2024 02:12:06.711    02 Jul 2024 02:14:56.930      170.21919088    
02 Jul 2024 12:50:20.947    02 Jul 2024 12:55:15.852      294.90485127    
03 Jul 2024 01:55:47.968    03 Jul 2024 02:00:04.427      256.45837655    
03 Jul 2024 12:34:34.079    03 Jul 2024 12:39:39.496      305.41662129    
04 Jul 2024 01:39:49.522    04 Jul 2024 01:44:44.770      295.24753260    
04 Jul 2024 12:19:01.711    04 Jul 2024 12:23:49.799      288.08761588    
05 Jul 2024 01:24:02.669    05 Jul 2024 01:29:06.731      304.06288127    
05 Jul 2024 12:03:46.270    05 Jul 2024 12:07:44.415      238.14436120    
06 Jul 2024 01:08:26.690    06 Jul 2024 01:13:11.065      284.37482013    
06 Jul 2024 11:49:04.320    06 Jul 2024 11:51:06.890      122.57045611    
06 Jul 2024 13:22:45.318    06 Jul 2024 13:25:13.478      148.15932198    
07 Jul 2024 00:53:06.095    07 Jul 2024 00:56:53.261      227.16595943    
07 Jul 2024 13:06:01.813    07 Jul 2024 13:10:14.511      252.69727588    
08 Jul 2024 00:38:36.415    08 Jul 2024 00:39:37.743      61.328046955    
08 Jul 2024 02:11:40.312    08 Jul 2024 02:14:28.979      168.66746801    
08 Jul 2024 12:49:49.642    08 Jul 2024 12:54:45.412      295.76973512    
09 Jul 2024 01:55:12.722    09 Jul 2024 01:59:28.335      255.61260532    
09 Jul 2024 12:33:54.565    09 Jul 2024 12:39:00.422      305.85717978    
10 Jul 2024 01:39:05.850    10 Jul 2024 01:44:00.061      294.21098559    
10 Jul 2024 12:18:14.275    10 Jul 2024 12:23:01.889      287.61430982    
11 Jul 2024 01:23:10.814    11 Jul 2024 01:28:13.104      302.29014741    
11 Jul 2024 12:02:51.411    11 Jul 2024 12:06:47.251      235.83963937    
12 Jul 2024 01:07:26.997    12 Jul 2024 01:12:08.113      281.11656450    
12 Jul 2024 11:48:04.604    12 Jul 2024 11:49:57.987      113.38305466    
12 Jul 2024 13:21:35.710    12 Jul 2024 13:24:12.200      156.48994247    
13 Jul 2024 00:51:59.434    13 Jul 2024 00:55:40.045      220.61094004    
13 Jul 2024 13:04:46.113    13 Jul 2024 13:09:02.563      256.44996248    
14 Jul 2024 02:10:19.312    14 Jul 2024 02:13:13.227      173.91512676    
14 Jul 2024 12:48:26.639    14 Jul 2024 12:53:24.071      297.43220882    
15 Jul 2024 01:53:44.721    15 Jul 2024 01:58:02.383      257.66200139    
15 Jul 2024 12:32:24.250    15 Jul 2024 12:37:29.756      305.50592628    
16 Jul 2024 01:37:30.235    16 Jul 2024 01:42:24.446      294.21048708    
16 Jul 2024 12:16:36.956    16 Jul 2024 12:21:21.648      284.69270841    
17 Jul 2024 01:21:27.663    17 Jul 2024 01:26:27.666      300.00289336    
17 Jul 2024 12:01:07.994    17 Jul 2024 12:04:56.588      228.59434071    
18 Jul 2024 01:05:36.765    18 Jul 2024 01:10:12.306      275.54178931    
18 Jul 2024 11:46:22.478    18 Jul 2024 11:47:49.572      87.094123755    
18 Jul 2024 13:19:31.191    18 Jul 2024 13:22:22.610      171.41896341    
19 Jul 2024 00:50:03.707    19 Jul 2024 00:53:32.185      208.47803147    
19 Jul 2024 13:02:37.649    19 Jul 2024 13:07:00.254      262.60463200    
20 Jul 2024 02:08:03.903    20 Jul 2024 02:11:09.136      185.23224061    
20 Jul 2024 12:46:11.890    20 Jul 2024 12:51:11.414      299.52482030    
21 Jul 2024 01:51:23.815    21 Jul 2024 01:55:46.212      262.39633028    
21 Jul 2024 12:30:03.007    21 Jul 2024 12:35:06.996      303.98869892    
22 Jul 2024 01:35:02.426    22 Jul 2024 01:39:57.501      295.07503366    
22 Jul 2024 12:14:09.611    22 Jul 2024 12:18:48.430      278.81830292    
23 Jul 2024 01:18:52.916    23 Jul 2024 01:23:49.875      296.95901528    
23 Jul 2024 11:58:36.082    23 Jul 2024 12:02:11.413      215.33057458    
24 Jul 2024 01:02:55.736    24 Jul 2024 01:07:22.898      267.16225130    
24 Jul 2024 13:16:32.354    24 Jul 2024 13:19:42.980      190.62612669    
25 Jul 2024 00:47:19.184    25 Jul 2024 00:50:28.244      189.05915640    
25 Jul 2024 12:59:36.144    25 Jul 2024 13:04:06.567      270.42304161    
26 Jul 2024 02:04:54.136    26 Jul 2024 02:08:15.315      201.17945974    
26 Jul 2024 12:43:04.946    26 Jul 2024 12:48:06.449      301.50297041    
27 Jul 2024 01:48:09.521    27 Jul 2024 01:52:38.809      269.28839082    
27 Jul 2024 12:26:50.331    27 Jul 2024 12:31:51.060      300.72952013    
28 Jul 2024 01:31:41.817    28 Jul 2024 01:36:38.181      296.36426142    
28 Jul 2024 12:10:51.796    28 Jul 2024 12:15:20.944      269.14851184    
29 Jul 2024 01:15:25.952    29 Jul 2024 01:20:18.547      292.59557052    
29 Jul 2024 11:55:15.822    29 Jul 2024 11:58:29.705      193.88230151    
30 Jul 2024 00:59:23.445    30 Jul 2024 01:03:38.391      254.94600262    
30 Jul 2024 13:12:39.237    30 Jul 2024 13:16:11.212      211.97512702    
31 Jul 2024 00:43:46.860    31 Jul 2024 00:46:25.105      158.24452207    
31 Jul 2024 02:18:26.619    31 Jul 2024 02:19:25.373      58.753860870    
31 Jul 2024 12:55:40.950    31 Jul 2024 13:00:19.950      279.00000078    
01 Aug 2024 02:00:49.728    01 Aug 2024 02:04:29.772      220.04335643    
01 Aug 2024 12:39:05.002    01 Aug 2024 12:44:07.642      302.64025521    


Number of events : 68


Observer: MountSac
Start Time (UTC)            Stop Time (UTC)               Duration (s)         
02 Jul 2024 03:49:08.289    02 Jul 2024 03:53:10.872      242.58297309    
02 Jul 2024 15:58:32.385    02 Jul 2024 16:03:06.089      273.70473681    
03 Jul 2024 03:34:34.766    03 Jul 2024 03:36:16.180      101.41356869    
03 Jul 2024 15:42:35.740    03 Jul 2024 15:47:38.493      302.75216934    
04 Jul 2024 04:51:54.010    04 Jul 2024 04:55:25.657      211.64695916    
04 Jul 2024 15:26:57.007    04 Jul 2024 15:31:53.858      296.85122569    
05 Jul 2024 04:35:40.814    05 Jul 2024 04:40:19.645      278.83116023    
05 Jul 2024 15:11:36.866    05 Jul 2024 15:15:51.622      254.75603716    
06 Jul 2024 04:19:46.158    06 Jul 2024 04:24:48.445      302.28761021    
06 Jul 2024 14:56:48.629    06 Jul 2024 14:59:18.633      150.00350297    
07 Jul 2024 04:04:05.355    07 Jul 2024 04:08:56.850      291.49566198    
07 Jul 2024 16:14:31.092    07 Jul 2024 16:17:45.271      194.17965455    
08 Jul 2024 03:48:41.588    08 Jul 2024 03:52:41.740      240.15204400    
08 Jul 2024 15:57:59.675    08 Jul 2024 16:02:34.724      275.04835693    
09 Jul 2024 03:34:02.993    09 Jul 2024 03:35:34.993      91.999961785    
09 Jul 2024 15:41:54.852    09 Jul 2024 15:46:58.465      303.61293904    
10 Jul 2024 04:51:08.491    10 Jul 2024 04:54:40.573      212.08265919    
10 Jul 2024 15:26:08.224    10 Jul 2024 15:31:04.966      296.74194180    
11 Jul 2024 04:34:47.127    11 Jul 2024 04:39:25.671      278.54351469    
11 Jul 2024 15:10:40.677    11 Jul 2024 15:14:53.457      252.78087719    
12 Jul 2024 04:18:44.473    12 Jul 2024 04:23:45.355      300.88138701    
12 Jul 2024 14:55:47.040    12 Jul 2024 14:58:09.267      142.22692545    
13 Jul 2024 04:02:56.019    13 Jul 2024 04:07:44.238      288.21948313    
13 Jul 2024 16:13:12.395    13 Jul 2024 16:16:34.024      201.62838389    
14 Jul 2024 03:47:25.524    14 Jul 2024 03:51:18.616      233.09214654    
14 Jul 2024 15:56:34.634    14 Jul 2024 16:01:13.111      278.47670694    
15 Jul 2024 03:32:52.222    15 Jul 2024 03:33:49.263      57.041366387    
15 Jul 2024 15:40:22.782    15 Jul 2024 15:45:27.229      304.44608931    
16 Jul 2024 04:49:29.126    16 Jul 2024 04:53:06.806      217.67954186    
16 Jul 2024 15:24:29.295    16 Jul 2024 15:29:23.993      294.69822363    
17 Jul 2024 04:33:01.008    17 Jul 2024 04:37:41.345      280.33746587    
17 Jul 2024 15:08:55.696    17 Jul 2024 15:13:01.997      246.30046764    
18 Jul 2024 04:16:51.206    18 Jul 2024 04:21:50.788      299.58196644    
18 Jul 2024 14:54:01.129    18 Jul 2024 14:56:02.259      121.13025666    
19 Jul 2024 04:00:55.968    19 Jul 2024 04:05:38.982      283.01331291    
19 Jul 2024 16:10:59.741    19 Jul 2024 16:14:33.631      213.88971128    
20 Jul 2024 03:45:20.279    20 Jul 2024 03:49:00.989      220.70961243    
20 Jul 2024 15:54:17.293    20 Jul 2024 15:59:00.739      283.44527157    
21 Jul 2024 05:04:22.896    21 Jul 2024 05:05:20.991      58.095160208    
21 Jul 2024 15:37:59.441    21 Jul 2024 15:43:04.224      304.78300505    
22 Jul 2024 04:46:55.925    22 Jul 2024 04:50:43.664      227.73943279    
22 Jul 2024 15:22:00.095    22 Jul 2024 15:26:50.248      290.15273902    
23 Jul 2024 04:30:22.210    23 Jul 2024 04:35:06.072      283.86237288    
23 Jul 2024 15:06:21.972    23 Jul 2024 15:10:16.219      234.24717259    
24 Jul 2024 04:14:06.038    24 Jul 2024 04:19:04.059      298.02086862    
24 Jul 2024 14:51:36.655    24 Jul 2024 14:52:50.720      74.065609567    
25 Jul 2024 03:58:04.930    25 Jul 2024 04:02:40.192      275.26289353    
25 Jul 2024 16:07:53.280    25 Jul 2024 16:11:42.621      229.34173752    
26 Jul 2024 03:42:26.118    26 Jul 2024 03:45:47.274      201.15649919    
26 Jul 2024 15:51:07.310    26 Jul 2024 15:55:56.478      289.16771432    
27 Jul 2024 05:00:43.843    27 Jul 2024 05:02:37.029      113.18589281    
27 Jul 2024 15:34:44.369    27 Jul 2024 15:39:48.290      303.92092714    
28 Jul 2024 04:43:28.660    28 Jul 2024 04:47:29.726      241.06653091    
28 Jul 2024 15:18:40.204    28 Jul 2024 15:23:22.391      282.18697147    
29 Jul 2024 04:26:50.180    29 Jul 2024 04:31:38.602      288.42229239    
29 Jul 2024 15:02:59.572    29 Jul 2024 15:06:34.152      214.57995063    
30 Jul 2024 04:10:28.362    30 Jul 2024 04:15:23.821      295.45852679    
30 Jul 2024 16:21:28.254    30 Jul 2024 16:23:13.593      105.33938790    
31 Jul 2024 03:54:22.449    31 Jul 2024 03:58:46.211      263.76196956    
31 Jul 2024 16:03:52.741    31 Jul 2024 16:07:59.030      246.28954214    
01 Aug 2024 03:38:44.024    01 Aug 2024 03:41:34.215      170.19095885    
01 Aug 2024 15:47:03.992    01 Aug 2024 15:51:58.644      294.65243518    


Number of events : 62


Observer: NorthEastern
Start Time (UTC)            Stop Time (UTC)               Duration (s)         
02 Jul 2024 00:37:27.391    02 Jul 2024 00:40:44.940      197.54862988    
02 Jul 2024 02:12:26.780    02 Jul 2024 02:13:28.198      61.417565052    
02 Jul 2024 12:50:54.832    02 Jul 2024 12:55:18.785      263.95275446    
03 Jul 2024 01:55:34.200    03 Jul 2024 01:59:11.884      217.68481334    
03 Jul 2024 12:34:53.821    03 Jul 2024 12:39:53.019      299.19783839    
04 Jul 2024 01:39:26.559    04 Jul 2024 01:44:03.720      277.16152032    
04 Jul 2024 12:19:08.141    04 Jul 2024 12:24:13.088      304.94698525    
05 Jul 2024 01:23:32.707    05 Jul 2024 01:28:34.927      302.21965896    
05 Jul 2024 12:03:36.362    05 Jul 2024 12:08:20.461      284.09893869    
06 Jul 2024 01:07:48.921    06 Jul 2024 01:12:49.273      300.35169107    
06 Jul 2024 11:48:21.434    06 Jul 2024 11:52:12.260      230.82567856    
07 Jul 2024 00:52:16.183    07 Jul 2024 00:56:45.783      269.60024822    
07 Jul 2024 11:33:42.801    07 Jul 2024 11:35:29.143      106.34219062    
07 Jul 2024 13:06:57.281    07 Jul 2024 13:09:59.472      182.19018371    
08 Jul 2024 00:37:02.065    08 Jul 2024 00:40:16.861      194.79580459    
08 Jul 2024 02:12:01.482    08 Jul 2024 02:12:59.207      57.724793139    
08 Jul 2024 12:50:23.358    08 Jul 2024 12:54:48.489      265.13104532    
09 Jul 2024 01:54:58.894    09 Jul 2024 01:58:35.934      217.03939087    
09 Jul 2024 12:34:14.066    09 Jul 2024 12:39:14.125      300.05868163    
10 Jul 2024 01:38:42.756    10 Jul 2024 01:43:19.243      276.48739780    
10 Jul 2024 12:18:20.329    10 Jul 2024 12:23:25.457      305.12798061    
11 Jul 2024 01:22:40.634    11 Jul 2024 01:27:41.638      301.00488514    
11 Jul 2024 12:02:40.786    11 Jul 2024 12:07:23.879      283.09279127    
12 Jul 2024 01:06:48.816    12 Jul 2024 01:11:46.869      298.05332639    
12 Jul 2024 11:47:18.679    12 Jul 2024 11:51:06.221      227.54187647    
13 Jul 2024 00:51:08.490    13 Jul 2024 00:55:33.754      265.26369019    
13 Jul 2024 11:32:36.822    13 Jul 2024 11:34:09.769      92.947225808    
13 Jul 2024 13:05:39.818    13 Jul 2024 13:08:49.092      189.27371122    
14 Jul 2024 00:35:48.277    14 Jul 2024 00:38:53.637      185.35985257    
14 Jul 2024 02:10:34.800    14 Jul 2024 02:11:49.336      74.535902543    
14 Jul 2024 12:48:59.345    14 Jul 2024 12:53:27.929      268.58372788    
15 Jul 2024 01:53:30.186    15 Jul 2024 01:57:10.904      220.71721712    
15 Jul 2024 12:32:42.795    15 Jul 2024 12:37:44.152      301.35743553    
16 Jul 2024 01:37:06.617    16 Jul 2024 01:41:44.382      277.76515723    
16 Jul 2024 12:16:41.837    16 Jul 2024 12:21:46.090      304.25272541    
17 Jul 2024 01:20:56.875    17 Jul 2024 01:25:57.051      300.17609575    
17 Jul 2024 12:00:55.426    17 Jul 2024 12:05:34.820      279.39464824    
18 Jul 2024 01:04:57.637    18 Jul 2024 01:09:52.267      294.63003727    
18 Jul 2024 11:45:27.514    18 Jul 2024 11:49:06.461      218.94749100    
19 Jul 2024 00:49:10.569    19 Jul 2024 00:53:28.362      257.79285306    
19 Jul 2024 11:30:52.869    19 Jul 2024 11:31:46.343      53.474006499    
19 Jul 2024 13:03:28.257    19 Jul 2024 13:06:49.473      201.21631989    
20 Jul 2024 00:33:46.525    20 Jul 2024 00:36:34.438      167.91281195    
20 Jul 2024 02:08:11.510    20 Jul 2024 02:09:53.453      101.94250429    
20 Jul 2024 12:46:42.791    20 Jul 2024 12:51:16.644      273.85286861    
21 Jul 2024 01:51:07.992    21 Jul 2024 01:54:56.360      228.36799789    
21 Jul 2024 12:30:19.875    21 Jul 2024 12:35:22.605      302.73034412    
22 Jul 2024 01:34:37.891    22 Jul 2024 01:39:18.705      280.81401950    
22 Jul 2024 12:14:12.463    22 Jul 2024 12:19:14.397      301.93329271    
23 Jul 2024 01:18:21.105    23 Jul 2024 01:23:20.646      299.54100691    
23 Jul 2024 11:58:20.078    23 Jul 2024 12:02:52.534      272.45541969    
24 Jul 2024 01:02:15.036    24 Jul 2024 01:07:04.806      289.77019483    
24 Jul 2024 11:42:48.023    24 Jul 2024 11:46:11.784      203.76148185    
25 Jul 2024 00:46:22.189    25 Jul 2024 00:50:28.669      246.47979270    
25 Jul 2024 13:00:22.697    25 Jul 2024 13:03:59.225      216.52763514    
26 Jul 2024 00:30:58.120    26 Jul 2024 00:33:16.620      138.50078643    
26 Jul 2024 02:04:54.398    26 Jul 2024 02:07:07.428      133.03021789    
26 Jul 2024 12:43:33.301    26 Jul 2024 12:48:13.585      280.28371063    
27 Jul 2024 01:47:51.939    27 Jul 2024 01:51:51.175      239.23594588    
27 Jul 2024 12:27:04.773    27 Jul 2024 12:32:08.422      303.64845672    
28 Jul 2024 01:31:15.974    28 Jul 2024 01:36:01.160      285.18573311    
28 Jul 2024 12:10:51.636    28 Jul 2024 12:15:49.213      297.57758182    
29 Jul 2024 01:14:52.649    29 Jul 2024 01:19:51.287      298.63830234    
29 Jul 2024 11:54:54.264    29 Jul 2024 11:59:15.622      261.35736866    
30 Jul 2024 00:58:40.367    30 Jul 2024 01:03:23.167      282.80061447    
30 Jul 2024 11:39:20.528    30 Jul 2024 11:42:19.854      179.32598839    
30 Jul 2024 13:14:02.083    30 Jul 2024 13:15:30.567      88.483712124    
31 Jul 2024 00:42:43.018    31 Jul 2024 00:46:32.882      229.86403591    
31 Jul 2024 12:56:22.806    31 Jul 2024 13:00:16.478      233.67212227    
01 Aug 2024 00:27:29.178    01 Aug 2024 00:28:51.783      82.604693016    
01 Aug 2024 02:00:43.766    01 Aug 2024 02:03:28.680      164.91339180    
01 Aug 2024 12:39:30.110    01 Aug 2024 12:44:17.176      287.06568953    


Number of events : 72


Observer: PortlandStateUni
Start Time (UTC)            Stop Time (UTC)               Duration (s)         
02 Jul 2024 05:20:16.422    02 Jul 2024 05:24:25.117      248.69508161    
02 Jul 2024 16:01:29.175    02 Jul 2024 16:06:25.325      296.14933004    
03 Jul 2024 05:04:18.151    03 Jul 2024 05:09:08.413      290.26225928    
03 Jul 2024 15:45:41.854    03 Jul 2024 15:50:48.156      306.30212211    
04 Jul 2024 04:48:29.741    04 Jul 2024 04:53:35.033      305.29255833    
04 Jul 2024 15:30:06.957    04 Jul 2024 15:34:59.755      292.79727557    
05 Jul 2024 04:32:49.774    05 Jul 2024 04:37:46.403      296.62848562    
05 Jul 2024 15:14:45.806    05 Jul 2024 15:18:58.844      253.03760263    
06 Jul 2024 04:17:20.103    06 Jul 2024 04:21:40.652      260.54850662    
06 Jul 2024 14:59:46.308    06 Jul 2024 15:02:37.584      171.27663335    
06 Jul 2024 16:33:41.155    06 Jul 2024 16:36:35.867      174.71224198    
07 Jul 2024 04:02:09.578    07 Jul 2024 04:05:08.876      179.29843058    
07 Jul 2024 05:36:14.545    07 Jul 2024 05:38:55.523      160.97814955    
07 Jul 2024 16:17:06.961    07 Jul 2024 16:21:26.169      259.20814915    
08 Jul 2024 05:19:48.754    08 Jul 2024 05:23:56.230      247.47643566    
08 Jul 2024 16:00:56.811    08 Jul 2024 16:05:53.714      296.90297178    
09 Jul 2024 05:03:41.904    09 Jul 2024 05:08:31.093      289.18948359    
09 Jul 2024 15:45:01.262    09 Jul 2024 15:50:07.921      306.65875239    
10 Jul 2024 04:47:45.141    10 Jul 2024 04:52:48.995      303.85424575    
10 Jul 2024 15:29:18.386    10 Jul 2024 15:34:10.733      292.34699607    
11 Jul 2024 04:31:57.061    11 Jul 2024 04:36:51.348      294.28719564    
11 Jul 2024 15:13:49.635    11 Jul 2024 15:18:00.734      251.09933802    
12 Jul 2024 04:16:19.710    12 Jul 2024 04:20:36.080      256.36961596    
12 Jul 2024 14:58:43.680    12 Jul 2024 15:01:29.321      165.64095116    
12 Jul 2024 16:32:31.442    12 Jul 2024 16:35:32.395      180.95289348    
13 Jul 2024 04:01:03.075    13 Jul 2024 04:03:53.144      170.06911375    
13 Jul 2024 05:35:01.515    13 Jul 2024 05:37:46.578      165.06311784    
13 Jul 2024 16:15:50.397    13 Jul 2024 16:20:12.780      262.38267585    
14 Jul 2024 05:18:28.337    14 Jul 2024 05:22:37.521      249.18420967    
14 Jul 2024 15:59:32.778    14 Jul 2024 16:04:31.089      298.31115195    
15 Jul 2024 05:02:13.635    15 Jul 2024 05:07:03.007      289.37175320    
15 Jul 2024 15:43:29.784    15 Jul 2024 15:48:36.096      306.31190473    
16 Jul 2024 04:46:09.061    16 Jul 2024 04:51:11.411      302.35027395    
16 Jul 2024 15:27:39.706    16 Jul 2024 15:32:29.519      289.81291708    
17 Jul 2024 04:30:13.428    17 Jul 2024 04:35:03.918      290.48996310    
17 Jul 2024 15:12:04.368    17 Jul 2024 15:16:09.570      245.20214737    
18 Jul 2024 04:14:29.233    18 Jul 2024 04:18:37.999      248.76609970    
18 Jul 2024 14:56:54.387    18 Jul 2024 14:59:25.699      151.31255686    
18 Jul 2024 16:30:27.518    18 Jul 2024 16:33:39.800      192.28236331    
19 Jul 2024 03:59:08.990    19 Jul 2024 04:01:41.069      152.07878624    
19 Jul 2024 05:32:54.154    19 Jul 2024 05:35:49.369      175.21522406    
19 Jul 2024 16:13:41.214    19 Jul 2024 16:18:08.775      267.56072121    
20 Jul 2024 05:16:15.042    20 Jul 2024 05:20:28.738      253.69641236    
20 Jul 2024 15:57:16.987    20 Jul 2024 16:02:17.054      300.06714348    
21 Jul 2024 04:59:53.119    21 Jul 2024 05:04:43.838      290.71937401    
21 Jul 2024 15:41:07.248    21 Jul 2024 15:46:12.199      304.95061786    
22 Jul 2024 04:43:41.209    22 Jul 2024 04:48:41.861      300.65135375    
22 Jul 2024 15:25:10.710    22 Jul 2024 15:29:55.505      284.79459003    
23 Jul 2024 04:27:38.565    23 Jul 2024 04:32:23.547      284.98191771    
23 Jul 2024 15:09:29.884    23 Jul 2024 15:13:24.499      234.61504520    
24 Jul 2024 04:11:48.480    24 Jul 2024 04:15:45.559      237.07880579    
24 Jul 2024 14:54:19.754    24 Jul 2024 14:56:24.263      124.50892786    
24 Jul 2024 16:27:29.522    24 Jul 2024 16:30:56.791      207.26841880    
25 Jul 2024 03:56:29.074    25 Jul 2024 03:58:29.696      120.62188082    
25 Jul 2024 05:29:52.473    25 Jul 2024 05:33:02.669      190.19576322    
25 Jul 2024 16:10:39.050    25 Jul 2024 16:15:13.207      274.15706475    
26 Jul 2024 05:13:08.384    26 Jul 2024 05:17:28.995      260.61107826    
26 Jul 2024 15:54:08.932    26 Jul 2024 15:59:10.654      301.72195873    
27 Jul 2024 04:56:39.744    27 Jul 2024 05:01:32.666      292.92189331    
27 Jul 2024 15:37:53.087    27 Jul 2024 15:42:55.192      302.10499578    
28 Jul 2024 04:40:20.929    28 Jul 2024 04:45:19.315      298.38602707    
28 Jul 2024 15:21:50.849    28 Jul 2024 15:26:27.492      276.64341750    
29 Jul 2024 04:24:11.849    29 Jul 2024 04:28:49.014      277.16422349    
29 Jul 2024 15:06:05.914    29 Jul 2024 15:09:43.900      217.98578926    
29 Jul 2024 16:41:22.649    29 Jul 2024 16:42:28.513      65.864058549    
30 Jul 2024 04:08:17.162    30 Jul 2024 04:11:57.048      219.88651918    
30 Jul 2024 05:43:39.266    30 Jul 2024 05:44:10.598      31.332394551    
30 Jul 2024 14:51:06.185    30 Jul 2024 14:52:16.580      70.395223936    
30 Jul 2024 16:23:37.167    30 Jul 2024 16:27:21.581      224.41400669    
31 Jul 2024 03:53:13.762    31 Jul 2024 03:54:06.426      52.663877117    
31 Jul 2024 05:25:56.174    31 Jul 2024 05:29:24.625      208.45177023    
31 Jul 2024 16:06:43.161    31 Jul 2024 16:11:24.605      281.44456199    
01 Aug 2024 05:09:07.550    01 Aug 2024 05:13:36.799      269.24844277    
01 Aug 2024 15:50:07.737    01 Aug 2024 15:55:10.414      302.67696355    


Number of events : 74


Observer: SantaCruz
Start Time (UTC)            Stop Time (UTC)               Duration (s)         
02 Jul 2024 03:50:10.340    02 Jul 2024 03:50:48.567      38.226378732    
02 Jul 2024 05:23:23.147    02 Jul 2024 05:25:25.456      122.30920665    
02 Jul 2024 15:59:13.192    02 Jul 2024 16:04:14.893      301.70138797    
03 Jul 2024 05:06:48.263    03 Jul 2024 05:10:49.562      241.29943895    
03 Jul 2024 15:43:33.231    03 Jul 2024 15:48:33.423      300.19169804    
04 Jul 2024 04:50:45.024    04 Jul 2024 04:55:35.196      290.17157285    
04 Jul 2024 15:28:09.974    04 Jul 2024 15:32:36.331      266.35661074    
05 Jul 2024 04:34:56.130    05 Jul 2024 04:39:59.766      303.63514270    
05 Jul 2024 15:13:11.292    05 Jul 2024 15:16:15.872      184.57951049    
06 Jul 2024 04:19:19.758    06 Jul 2024 04:24:05.164      285.40539189    
06 Jul 2024 16:31:17.535    06 Jul 2024 16:34:26.214      188.67949579    
07 Jul 2024 04:04:00.604    07 Jul 2024 04:07:46.722      226.11796861    
07 Jul 2024 16:14:46.096    07 Jul 2024 16:19:17.299      271.20230778    
08 Jul 2024 03:49:54.151    08 Jul 2024 03:50:08.941      14.790423447    
08 Jul 2024 05:22:55.678    08 Jul 2024 05:24:56.252      120.57350016    
08 Jul 2024 15:58:40.776    08 Jul 2024 16:03:43.298      302.52209207    
09 Jul 2024 05:06:11.763    09 Jul 2024 05:10:12.401      240.63851918    
09 Jul 2024 15:42:52.704    09 Jul 2024 15:47:53.127      300.42307785    
10 Jul 2024 04:50:00.120    10 Jul 2024 04:54:49.399      289.27807318    
10 Jul 2024 15:27:21.714    10 Jul 2024 15:31:47.039      265.32479678    
11 Jul 2024 04:34:03.086    11 Jul 2024 04:39:05.013      301.92726968    
11 Jul 2024 15:12:16.312    11 Jul 2024 15:15:16.655      180.34297141    
12 Jul 2024 04:18:18.944    12 Jul 2024 04:23:01.024      282.08022950    
12 Jul 2024 16:30:07.761    12 Jul 2024 16:33:22.940      195.17947185    
13 Jul 2024 04:02:52.998    13 Jul 2024 04:06:32.153      219.15470045    
13 Jul 2024 16:13:29.627    13 Jul 2024 16:18:03.981      274.35400626    
14 Jul 2024 05:21:31.515    14 Jul 2024 05:23:41.380      129.86536097    
14 Jul 2024 15:57:17.035    14 Jul 2024 16:02:20.578      303.54263572    
15 Jul 2024 05:04:42.115    15 Jul 2024 05:08:45.815      243.70046414    
15 Jul 2024 15:41:21.823    15 Jul 2024 15:46:20.931      299.10815936    
16 Jul 2024 04:48:23.104    16 Jul 2024 04:53:12.907      289.80287042    
16 Jul 2024 15:25:44.259    16 Jul 2024 15:30:04.862      260.60304672    
17 Jul 2024 04:32:18.679    17 Jul 2024 04:37:18.560      299.88163981    
17 Jul 2024 15:10:34.642    17 Jul 2024 15:13:22.199      167.55694547    
18 Jul 2024 04:16:27.615    18 Jul 2024 04:21:04.057      276.44181271    
18 Jul 2024 16:28:03.905    18 Jul 2024 16:31:30.679      206.77398155    
19 Jul 2024 04:00:56.532    19 Jul 2024 04:04:22.791      206.25978385    
19 Jul 2024 16:11:20.788    19 Jul 2024 16:16:00.047      279.25820636    
20 Jul 2024 05:19:11.648    20 Jul 2024 05:21:39.493      147.84535768    
20 Jul 2024 15:55:01.926    20 Jul 2024 16:00:06.290      304.36400052    
21 Jul 2024 05:02:19.226    21 Jul 2024 05:06:29.372      250.14595228    
21 Jul 2024 15:39:00.492    21 Jul 2024 15:43:56.281      295.78930069    
22 Jul 2024 04:45:53.747    22 Jul 2024 04:50:45.263      291.51569180    
22 Jul 2024 15:23:17.579    22 Jul 2024 15:27:29.017      251.43716434    
23 Jul 2024 04:29:42.629    23 Jul 2024 04:34:39.836      297.20688629    
23 Jul 2024 15:08:07.436    23 Jul 2024 15:10:30.380      142.94421561    
24 Jul 2024 04:13:45.543    24 Jul 2024 04:18:13.475      267.93235908    
24 Jul 2024 16:25:06.168    24 Jul 2024 16:28:48.073      221.90535441    
25 Jul 2024 03:58:11.617    25 Jul 2024 04:01:17.050      185.43304985    
25 Jul 2024 16:08:19.278    25 Jul 2024 16:13:04.482      285.20413663    
26 Jul 2024 05:15:57.060    26 Jul 2024 05:18:48.254      171.19340388    
26 Jul 2024 15:51:55.021    26 Jul 2024 15:56:59.401      304.38013903    
27 Jul 2024 04:59:02.713    27 Jul 2024 05:03:21.952      259.23850725    
27 Jul 2024 15:35:48.275    27 Jul 2024 15:40:38.004      289.72916740    
28 Jul 2024 04:42:31.488    28 Jul 2024 04:47:25.367      293.87932217    
28 Jul 2024 15:20:01.486    28 Jul 2024 15:23:57.938      236.45207004    
29 Jul 2024 04:26:14.354    29 Jul 2024 04:31:07.613      293.25875246    
29 Jul 2024 15:04:59.128    29 Jul 2024 15:06:34.871      95.742484485    
29 Jul 2024 16:38:54.968    29 Jul 2024 16:40:21.178      86.209758266    
30 Jul 2024 04:10:12.322    30 Jul 2024 04:14:27.717      255.39502138    
30 Jul 2024 16:21:14.336    30 Jul 2024 16:25:13.250      238.91427600    
31 Jul 2024 03:54:39.670    31 Jul 2024 03:57:11.387      151.71657895    
31 Jul 2024 16:04:24.434    31 Jul 2024 16:09:15.724      291.29027560    
01 Aug 2024 05:11:48.028    01 Aug 2024 05:15:05.106      197.07806030    
01 Aug 2024 15:47:55.556    01 Aug 2024 15:52:58.311      302.75424575    


Number of events : 65


Observer: TexasUni
Start Time (UTC)            Stop Time (UTC)               Duration (s)         
02 Jul 2024 02:16:14.345    02 Jul 2024 02:18:35.655      141.31004435    
02 Jul 2024 14:22:25.713    02 Jul 2024 14:27:29.258      303.54491423    
03 Jul 2024 03:34:17.044    03 Jul 2024 03:36:56.782      159.73787043    
03 Jul 2024 14:06:53.525    03 Jul 2024 14:11:42.302      288.77702637    
04 Jul 2024 03:17:49.205    04 Jul 2024 03:22:09.570      260.36509004    
04 Jul 2024 13:51:43.410    04 Jul 2024 13:55:34.054      230.64430570    
05 Jul 2024 03:01:49.495    05 Jul 2024 03:06:47.758      298.26255912    
05 Jul 2024 13:37:38.077    05 Jul 2024 13:38:22.014      43.936943274    
06 Jul 2024 02:46:06.041    06 Jul 2024 02:51:03.374      297.33305991    
06 Jul 2024 14:54:19.045    06 Jul 2024 14:57:46.864      207.81891936    
07 Jul 2024 02:30:39.884    07 Jul 2024 02:34:55.488      255.60387064    
07 Jul 2024 14:37:53.385    07 Jul 2024 14:42:35.295      281.91024073    
08 Jul 2024 02:15:49.183    08 Jul 2024 02:18:06.009      136.82593319    
08 Jul 2024 14:21:53.834    08 Jul 2024 14:26:58.206      304.37253466    
09 Jul 2024 03:33:40.771    09 Jul 2024 03:36:20.418      159.64713214    
09 Jul 2024 14:06:13.632    09 Jul 2024 14:11:02.472      288.83990227    
10 Jul 2024 03:17:04.525    10 Jul 2024 03:21:24.593      260.06716336    
10 Jul 2024 13:50:56.091    10 Jul 2024 13:54:44.939      228.84812818    
11 Jul 2024 03:00:56.676    11 Jul 2024 03:05:53.853      297.17709994    
12 Jul 2024 02:45:05.404    12 Jul 2024 02:50:00.169      294.76544786    
12 Jul 2024 14:53:10.109    12 Jul 2024 14:56:43.982      213.87343509    
13 Jul 2024 02:29:32.149    13 Jul 2024 02:33:42.210      250.06058291    
13 Jul 2024 14:36:37.686    13 Jul 2024 14:41:22.447      284.76123079    
14 Jul 2024 02:14:38.913    14 Jul 2024 02:16:38.034      119.12092807    
14 Jul 2024 14:20:30.985    14 Jul 2024 14:25:35.840      304.85484791    
15 Jul 2024 03:32:08.976    15 Jul 2024 03:34:57.118      168.14232470    
15 Jul 2024 14:04:43.934    15 Jul 2024 14:09:30.344      286.41002427    
16 Jul 2024 03:15:26.930    16 Jul 2024 03:19:49.860      262.93007311    
16 Jul 2024 13:49:20.737    16 Jul 2024 13:53:01.921      221.18418426    
17 Jul 2024 02:59:12.017    17 Jul 2024 03:04:08.884      296.86699550    
18 Jul 2024 02:43:13.860    18 Jul 2024 02:48:04.714      290.85461267    
18 Jul 2024 14:51:07.423    18 Jul 2024 14:54:52.009      224.58547371    
19 Jul 2024 02:27:34.886    19 Jul 2024 02:31:35.026      240.14017114    
19 Jul 2024 14:34:29.921    19 Jul 2024 14:39:18.882      288.96177819    
20 Jul 2024 02:12:48.014    20 Jul 2024 02:14:06.951      78.937002062    
20 Jul 2024 14:18:17.170    20 Jul 2024 14:23:21.688      304.51891255    
21 Jul 2024 03:29:42.205    21 Jul 2024 03:32:45.845      183.64023274    
21 Jul 2024 14:02:24.426    21 Jul 2024 14:07:05.291      280.86555626    
22 Jul 2024 03:12:56.302    22 Jul 2024 03:17:24.833      268.53009146    
22 Jul 2024 13:46:57.682    22 Jul 2024 13:50:23.865      206.18243847    
23 Jul 2024 02:56:35.288    23 Jul 2024 03:01:32.264      296.97618037    
23 Jul 2024 15:05:59.973    23 Jul 2024 15:06:48.837      48.863741825    
24 Jul 2024 02:40:31.182    24 Jul 2024 02:45:16.259      285.07718443    
24 Jul 2024 14:48:11.149    24 Jul 2024 14:52:09.632      238.48361203    
25 Jul 2024 02:24:48.191    25 Jul 2024 02:28:32.705      224.51392222    
25 Jul 2024 14:31:29.825    25 Jul 2024 14:36:23.555      293.72970834    
26 Jul 2024 14:15:12.031    26 Jul 2024 14:20:14.651      302.61921737    
27 Jul 2024 03:26:20.905    27 Jul 2024 03:29:44.681      203.77673461    
27 Jul 2024 13:59:14.838    27 Jul 2024 14:03:45.974      271.13629463    
28 Jul 2024 03:09:32.250    28 Jul 2024 03:14:08.282      276.03196531    
28 Jul 2024 13:43:47.659    28 Jul 2024 13:46:48.290      180.63059966    
29 Jul 2024 02:53:05.969    29 Jul 2024 02:58:02.739      296.76999813    
29 Jul 2024 15:01:49.628    29 Jul 2024 15:03:51.459      121.83152398    
30 Jul 2024 02:36:56.933    30 Jul 2024 02:41:33.313      276.37944161    
30 Jul 2024 14:44:21.062    30 Jul 2024 14:48:34.989      253.92740933    
31 Jul 2024 02:21:12.452    31 Jul 2024 02:24:32.773      200.32027705    
31 Jul 2024 14:27:36.795    31 Jul 2024 14:32:34.842      298.04644966    
01 Aug 2024 14:11:14.921    01 Aug 2024 14:16:13.008      298.08658379    


Number of events : 58


